[
  {"city":"Armenia","population":"315,328","image":"[URL de la imagen de Armenia]","state":"Quindio","latitude":4.5343,"longitude":-75.6723},
  {"city":"Calarcá","population":"149,485","image":"[URL de la imagen de Calarcá]","state":"Quindio","latitude":4.5285,"longitude":-75.6345},
  {"city":"Salento","population":"8,671","image":"[URL de la imagen de Salento]","state":"Quindio","latitude":4.6276,"longitude":-75.5691},
  {"city":"Circasia","population":"30,506","image":"[URL de la imagen de Circasia]","state":"Quindio","latitude":4.6147,"longitude":-75.6342},
  {"city":"La Tebaida","population":"47,814","image":"[URL de la imagen de La Tebaida]","state":"Quindio","latitude":4.4570,"longitude":-75.7545},
  {"city":"Montenegro","population":"45,666","image":"[URL de la imagen de Montenegro]","state":"Quindio","latitude":4.5599,"longitude":-75.7516},
  {"city":"Quimbaya","population":"27,117","image":"[URL de la imagen de Quimbaya]","state":"Quindio","latitude":4.6247,"longitude":-75.7594},
  {"city":"Buenavista","population":"10,983","image":"[URL de la imagen de Buenavista]","state":"Quindio","latitude":4.3924,"longitude":-75.7486},
  {"city":"Pijao","population":"9,521","image":"[URL de la imagen de Pijao]","state":"Quindio","latitude":4.3342,"longitude":-75.7137}
]
